[
    {
        "name": "Tutorial Room + 22 (NS)",
        "address": "NS4-05-100, Level - L5",
        "latitude": 1.3455628,
        "longitude": 103.6811352,
        "level": 50
    },
    {
        "name": "Tutorial Room + 17 (NS)",
        "address": "NS4-05-95, Level - L5",
        "latitude": 1.3458432,
        "longitude": 103.6810857,
        "level": 50
    },
    {
        "name": "Post Box (NS)",
        "address": "Level - L1",
        "latitude": 1.3460291260436403,
        "longitude": 103.68070450158348,
        "level": 0
    },
    {
        "name": "Tutorial Room + 29 (NS)",
        "address": "NS2-05-22, Level - L5", 
        "latitude": 1.3459707,
        "longitude": 103.6806899,
        "level": 50
    },
    {
        "name": "Octobox (NS)",
        "address": "NS3-01-02, Level - L1",
        "latitude": 1.347320398379632,
        "longitude": 103.6807690216024,
        "level": 0
    },
    {
        "name": "LT10 (NS)",
        "address": "NS4-04-41, Level - L4",
        "latitude": 1.345576,
        "longitude": 103.6811027,
        "level": 40
    },
    {
        "name": "LT8 (NS)",
        "address": "NS1-02-01, Level - L2",
        "latitude": 1.3451821,
        "longitude": 103.6806673,
        "level": 20
    },
    {
        "name": "LT2A (NS)",
        "address": "LT2A-01-01,",
        "latitude": 1.346617711733089,
        "longitude": 103.6813623887647,
        "level": 0
    },
    {
        "name": "Pasta Express (NS)",
        "address": "NS3-01-17, Level - L1",
        "latitude": 1.3469878119031449,
        "longitude": 103.68074695287685,
        "level": 0
    },
    {
        "name": "Yilin Likes Tea (NS)",
        "address": "NS3-01-07, Level - L1",
        "latitude": 1.3471822183134587,
        "longitude": 103.6807838332508,
        "level": 0
    },
    {
        "name": "Tutorial Room + 33 (NS)",
        "address": "NS2-05-26, Level - L5",
        "latitude": 1.3461744,
        "longitude": 103.68069,
        "level": 50
    },
    {
        "name": "Mr Bean (NS)",
        "address": "NS3-01-16, Level - L1",
        "latitude": 1.3469437025678923,
        "longitude": 103.68067037532474,
        "level": 0
    },
    {
        "name": "NTU Academy for Professional and Continuing Education [NTU PACE] (NS)",
        "address": "NS1-05-01, Level - L5"
    },
    {
        "name": "Tutorial Room + 44 (N2)",
        "address": "N2-B2A-06, Level - B2"
    },
    {
        "name": "Biometrics & Forensics Lab [BFL] (NS)",
        "address": "NS1-05-01A, Level - L5"
    },
    {
        "name": "Metis Reading Room (NS)",
        "address": "NS3-05-78, Level - L5"
    },
    {
        "name": "Tutorial Room + 37 (NS)",
        "address": "NS2-05-30, Level - L5",
        "latitude": 1.346352,
        "longitude": 103.6806338,
        "level": 50
    },
    {
        "name": "Tutorial Room + 31 (NS)",
        "address": "NS2-05-24, Level - L5",
        "latitude": 1.3460727,
        "longitude": 103.68069,
        "level": 50
    },
    {
        "name": "Tutorial Room + 18 (NS)",
        "address": "NS4-05-96, Level - L5", 
        "latitude": 1.3457999,
        "longitude": 103.6811352,
        "level": 50
    },
    {
        "name": "ATM - OCBC (NS)",
        "address": "NS3-01, Level - L1",
        "latitude": 1.3471773825779565,
        "longitude": 103.6806069231169,
        "level": 0
    },
    {
        "name": "MyStage (SAC) (NS)",
        "address": "Level - L1"
    },
    {
        "name": "Blue Ocean Kopi & Toast (N2.1)",
        "address": "N2.1-01-05, Level - L1"
    },
    {
        "name": "Tutorial Room + 7 (NS)",
        "address": "NS4-05-85, Level - L5",
        "latitude": 1.3465045,
        "longitude": 103.6810871,
        "level": 50
    },
    {
        "name": "Encik Tan (N2.1)",
        "address": "N2.1-01-04, Level - L1"
    },
    {
        "name": "Popeyes (N2.1)",
        "address": "N2.1-01-04, Level - L1"
    },
    {
        "name": "Labs (NS)",
        "address": "NS4-05-92A,  Level - L5"
    },
    {
        "name": "Minerva Reading Room (NS)",
        "address": "NS3-03-03, Level - L3",
        "latitude": 1.3472873,
        "longitude": 103.6807595,
        "level": 30
    },
    {
        "name": "Foyer @ LT2A (NS)",
        "address": "Level - L1"
    },
    {
        "name": "Tutorial Room + 6 (NS)",
        "address": "NS4-05-84, Level - L5",
        "latitude": 1.3465498,
        "longitude": 103.6811382,
        "level": 50
    },
    {
        "name": "Booklink (NS)",
        "address": "NS3-01-25, Level - L1",
        "latitude": 1.3469733264204111,
        "longitude": 103.68097699339951,
        "level": 0
    },
    {
        "name": "Student Activities Centre by NTUSU (NS)",
        "address": "NS3-01-05, Level - L1"
    },
    {
        "name": "Wok Express (NS)",
        "address": "NS3-01-23, Level - L1",
        "latitude": 1.3467539,
        "longitude": 103.6807763,
        "level": 0
    },
    {
        "name": "LT12 (NS)",
        "address": "NS2-04-13, Level - L4",
        "latitude": 1.3462288,
        "longitude": 103.6806155,
        "level": 40
    },
    {
        "name": "Venture Drive Coffee (NS)",
        "address": "NS3-01-13, Level - L1",
        "latitude": 1.3470994,
        "longitude": 103.6804531,
        "level": 0
    },
    {
        "name": "The Crowded Bowl (NS)",
        "address": "NS3-01-18, Level - L1",
        "latitude": 1.3468988434065687,
        "longitude": 103.68072856134222,
        "level": 0
    },
    {
        "name": "Tutorial Room + 3 (NS)",
        "address": "NS4-05-81, Level - L5",
        "latitude": 1.3467101,
        "longitude": 103.6810873,
        "level": 50
    },
    {
        "name": "HOLA Mobile Pitstop (NS)",
        "address": "NS3-01-07, Level - L1",
        "latitude": 1.3471510462520961,
        "longitude": 103.68078316269855,
        "level": 0
    },
    {
        "name": "Tutorial Room + 5 (NS)",
        "address": "NS4-05-83, Level - L5",
        "latitude": 1.3466075,
        "longitude": 103.6810867,
        "level": 50
    },
    {
        "name": "AIA Canopy (NS)",
        "address": "Level - L1",
        "latitude": 1.3473586053797462,
        "longitude": 103.68051693411084,
        "level": 0
    },
    {
        "name": "AXS Station (NS)",
        "address": "NS3-02, Level - L2"
    },
    {
        "name": "Tutorial Room + 32 (NS)",
        "address": "NS2-05-25, Level - L5",
        "latitude": 1.3461158,
        "longitude": 103.6806337,
        "level": 50
    },
    {
        "name": "LT17 (NS)",
        "address": "NS1-04-03, Level - L4",
        "latitude": 1.3452524,
        "longitude": 103.6806685,
        "level": 40
    },
    {
        "name": "LT13 (NS)",
        "address": "NS2-04-11, Level - L4",
        "latitude": 1.346121,
        "longitude": 103.6806155,
        "level": 40
    },
    {
        "name": "North Spine Food Court / Canteen A / Koufu (N2.1)",
        "address": "N2.1-02-01/03, Level - L2"
    },
    {
        "name": "QQ Rice (NS)",
        "address": "NS3-01-22, Level - L1",
        "latitude": 1.3468081458133183,
        "longitude": 103.680821024289,
        "level": 0
    },
    {
        "name": "North Spine (NS)",
        "address": "Level - L1"
    },
    {
        "name": "Sky Deck (NS)",
        "address": "Level - L2"
    },
    {
        "name": "Biomedical Informatics Lab [BIL] (NS)",
        "address": "NS4-04-33, Level - L4",
        "latitude": 1.3458359,
        "longitude": 103.6811325,
        "level": 40
    },
    {
        "name": "ATM - UOB (NS)",
        "address": "NS3-02, Level - L2"
    },
    {
        "name": "Lee Wee Nam Library (NS)",
        "address": "NS3-03-01, Level - L3",
        "latitude": 1.3475674965669269,
        "longitude": 103.68088842558167,
        "level": 30
    },
    {
        "name": "LT11 (NS)",
        "address": "NS2-04-15, Level - L4",
        "latitude": 1.3463385,
        "longitude": 103.6806156,
        "level": 40
    },
    {
        "name": "Student Global Lounge (NS)",
        "address": "NS3-01-06, Level - L1"
    },
    {
        "name": "Tutorial Room + 15 (NS)",
        "address": "NS4-05-93, Level - L5",
        "latitude": 1.3459434,
        "longitude": 103.6810798,
        "level": 50
    },
    {
        "name": "Tutorial Room + 2 (NS)",
        "address": "NS4-05-80, Level - L5",
        "latitude": 1.3467844,
        "longitude": 103.6811383,
        "level": 50
    },
    {
        "name": "LT14 (NS)",
        "address": "NS2-04-09, Level - L4",
        "latitude": 1.346049556650979, 
        "longitude": 103.6808211390822, 
        "level": 40
    },
    {
        "name": "LT1A (NS)",
        "address": "LT1A-01-01, Level - L1",
        "latitude": 1.3473371941801626, 
        "longitude": 103.68050347660234, 
        "level": 0 
    },
    {
        "name": "PEN & INC (N2.1)",
        "address": "N2.1-01-01, Level - L1"
    },
    {
        "name": "ATM - DBS/POSB (NS)",
        "address": "NS3-02, Level - L2",
        "latitude": 1.3472876796334585,
        "longitude": 103.68072783138633,
        "level": 20
    },
    {
        "name": "Meeting Room 3 - SAC (NS)",
        "address": "NS3-01-05-MR3, Level - L1"
    },
    {
        "name": "Boost Juice Bars (NS)",
        "address": "NS3-01-11, Level - L1",
        "latitude": 1.3472461,
        "longitude": 103.6804194,
        "level": 0
    },
    {
        "name": "The House Steam Boat Restaurant (NS)",
        "address": "NS3-01-24, Level - L1",
        "latitude": 1.346691746126208,
        "longitude": 103.68081892001649,
        "level": 0
    },
    {
        "name": "University Wellbeing Office [UWO] (NS)",
        "address": "Level - L2",
        "latitude": 1.3473112114797456,
        "longitude": 103.68071434783306,
        "level": 20
    },
    {
        "name": "Frank by OCBC - NTU Branch (NS)",
        "address": "NS3-01-01, Level - L1",
        "latitude": 1.347183894230682,
        "longitude": 103.68063698230723,
        "level": 0
    },
    {
        "name": "Starbucks Coffee (N2.1)",
        "address": "N2.1-01-06, Level - L1"
    },
    {
        "name": "Foyer @ LT1 (NS)",
        "address": "Level - L2"
    },
    {
        "name": "Tutorial Room + 20 (NS)",
        "address": "NS4-05-98, Level - L5",
        "latitude": 1.3456803,
        "longitude": 103.6811352,
        "level": 50
    },
    {
        "name": "Training Room - CITS (NS)",
        "address": "NS4-04-29, Level - L4",
        "latitude": 1.346750115694856,
        "longitude": 103.68108270270254,
        "level": 40
    },
    {
        "name": "High Performance Computing Centre [HPCC] (NS)",
        "address": "NS4-04-25, Level - L4",
        "latitude": 1.3464905,
        "longitude": 103.6811204,
        "level": 40
    },
    {
        "name": "Office of Information, Knowledge & Library Services [OIKLS] (NS)",
        "address": "NS3-04-17, Level - L4",
        "latitude": 1.3472674,
        "longitude": 103.6810676,
        "level": 40
    },
    {
        "name": "The Soup Spoon Union (NS)",
        "address": "NS3-01-14, Level - L1",
        "latitude": 1.3470816665121816,
        "longitude": 103.68060586193654,
        "level": 0
    },
    {
        "name": "Communication Skills Lab 1 - HSS (NS)",
        "address": "NS4-04-36, Level - L4",
        "latitude": 1.3459192,
        "longitude": 103.6810727,
        "level": 40
    },
    {
        "name": "Tutorial Room + 16 (NS)",
        "address": "NS4-05-94, Level - L5",
        "latitude": 1.3459169,
        "longitude": 103.6811353,
        "level": 50
    },
    {
        "name": "LT19A (NS)",
        "address": "LT19A-01-01,"
    },
    {
        "name": "Tutorial Room + 30 (NS)",
        "address": "NS2-05-23, Level - L5",
        "latitude": 1.3459972,
        "longitude": 103.6806337,
        "level": 50
    },
    {
        "name": "Open Deck (NS)",
        "address": "Level - L2"
    },
    {
        "name": "Tutorial Room + 23 (NS)",
        "address": "NS4-05-101, Level - L5",
        "latitude": 1.3455365,
        "longitude": 103.6810796,
        "level": 50
    },
    {
        "name": "Meeting Room 2 - SAC (NS)",
        "address": "NS3-01-05-MR2, Level - L1"
    },
    {
        "name": "Prime Supermarket (NS)",
        "address": "NS3-01-26/27/28, Level - L1",
        "latitude": 1.3467845458332437,
        "longitude": 103.68097331291483,
        "level": 0
    },
    {
        "name": "One Stop@SAC (NS)",
        "address": "NS3-01-03/03A, Level - L1",
        "latitude": 1.3469733264204111, 
        "longitude": 103.68097699339951, 
        "level": 0
    },
    {
        "name": "LT3 (NS)",
        "address": "NS4-02-32, Level - L2",
        "latitude": 1.3458637,
        "longitude": 103.6811033,
        "level": 20
    },
    {
        "name": "Tutorial Room + 4 (NS)",
        "address": "NS4-05-82, Level - L5",
        "latitude": 1.3466655,
        "longitude": 103.6811383,
        "level": 50
    },
    {
        "name": "LT7 (NS)",
        "address": "NS1-02-03, Level - L2",
        "latitude": 1.3454309,
        "longitude": 103.6806674,
        "level": 20
    },
    {
        "name": "Communication Skills Lab 3 - HSS (NS)",
        "address": "NS4-04-38, Level - L4",
        "latitude": 1.3457756,
        "longitude": 103.6810746,
        "level": 40
    },
    {
        "name": "LT2 - Tan Chin Tuan LT (NS)",
        "address": "NS4-02-36, Level - L2",
        "latitude": 1.3452148,
        "longitude": 103.6811772,
        "level": 20
    },
    {
        "name": "LT6 (NS)",
        "address": "NS2-02-05, Level - L2",
        "latitude": 1.3460504,
        "longitude": 103.6806677,
        "level": 20
    },
    {
        "name": "Bakery Cuisine (NS)",
        "address": "NS3-01-20, Level - L1"
    },
    {
        "name": "Foyer @ LT1A (NS)",
        "address": "Level - L1"
    },
    {
        "name": "Tutorial Room + 8 (NS)",
        "address": "NS4-05-86, Level - L5",
        "latitude": 1.3464312,
        "longitude": 103.6811381,
        "level": 50
    },
    {
        "name": "Kalms (NS)",
        "address": "NS3-02-01, Level - L2"
    },
    {
        "name": "The Green Space @ L1 (NS)",
        "address": "Level - L1"
    },
    {
        "name": "Tutorial Room + 19 (NS)",
        "address": "NS4-05-97, Level - L5",
        "latitude": 1.3457401,
        "longitude": 103.6810858,
        "level": 50
    },
    {
        "name": "LT15 (NS)",
        "address": "NS1-04-07, Level - L4",
        "latitude": 1.3454697,
        "longitude": 103.6806686,
        "level": 40 
    },
    {
        "name": "Tutorial Room + 9 (NS)",
        "address": "NS4-05-87, Level - L5",
        "latitude": 1.3464043,
        "longitude": 103.6810811,
        "level": 50
    },
    {
        "name": "Office of Health, Safety & Emergency [OHSE] (NS)",
        "address": "NS2-05-36, Level - L5"
    },
    {
        "name": "Tutorial Room + 21 (NS)",
        "address": "NS4-05-99, Level - L5",
        "latitude": 1.3456368,
        "longitude": 103.6810852,
        "level": 50
    },
    {
        "name": "Meeting Room 1 - SAC (NS)",
        "address": "NS3-01-05-MR1, Level - L1"
    },
    {
        "name": "Each-A-Cup (NS)",
        "address": "NS3-01-21, Level - L1",
        "latitude": 1.3468428758993265,
        "longitude": 103.6808223994057,
        "level": 0
    },
    {
        "name": "Athena Reading Room (NS)",
        "address": "NS3-03-02, Level - L3",
        "latitude": 1.3473253,
        "longitude": 103.6809875,
        "level": 30
    },
    {
        "name": "Library Staff Office (NS)",
        "address": "NS3-05-43, Level - L5"
    },
    {
        "name": "Tutorial Room + 34 (NS)",
        "address": "NS2-05-27, Level - L5",
        "latitude": 1.3462336,
        "longitude": 103.6806338,
        "level": 50
    },
    {
        "name": "Gelare (NS)",
        "address": "NS3-01-19, Level - L1",
        "latitude": 1.346988672580554,
        "longitude": 103.68080433374689,
        "level": 0
    },
    {
        "name": "Communication Skills Lab 2 - HSS (NS)",
        "address": "NS4-04-37, Level - L4",
        "latitude": 1.3458482,
        "longitude": 103.6810746,
        "level": 40
    },
    {
        "name": "Data Centre - CITS (NS)",
        "address": "NS4-02-21, Level - L2",
        "latitude": 1.3464837,
        "longitude": 103.6811075,
        "level": 20
    },
    {
        "name": "Digital Media - CITS (NS)",
        "address": "NS3-04-24A, Level - L4",
        "latitude": 1.3470282,
        "longitude": 103.6809875,
        "level": 40
    },
    {
        "name": "LT9 (NS)",
        "address": "NS4-04-39, Level - L4",
        "latitude": 1.3456867,
        "longitude": 103.6811027,
        "level": 40
    },
    {
        "name": "AirTop @ ATMRI (NS)",
        "address": "N3.2-B3M-10, Level - B3M"
    },
    {
        "name": "Pick Lockers (NS)",
        "address": "Level - L1"
    },
    {
        "name": "Booth @ L2 (NS)",
        "address": "Level - L2"
    },
    {
        "name": "Paik's Bibim Bibimbap (NS)",
        "address": "NS3-01-15, Level - L1",
        "latitude": 1.3470260842798023,
        "longitude": 103.68065650491084,
        "level": 0
    },
    {
        "name": "ATM - ICBC (NS)",
        "address": "NS3-02, Level - L2"
    },
    {
        "name": "Marketplace (NS)",
        "address": "Level - L1"
    },
    {
        "name": "Tutorial Room + 35 (NS)",
        "address": "NS2-05-28, Level - L5",
        "latitude": 1.3462762,
        "longitude": 103.6806901,
        "level": 50
    },
    {
        "name": "Tutorial Room + 1 (NS)",
        "address": "NS4-05-79, Level - L5",
        "latitude": 1.3468113,
        "longitude": 103.6810814,
        "level": 50
    },
    {
        "name": "Tutorial Room + 36 (NS)",
        "address": "NS2-05-29, Level - L5",
        "latitude": 1.3463781,
        "longitude": 103.6806901,
        "level": 50
    },
    {
        "name": "Chateraise (NS)",
        "address": "NS3-01-08, Level - L1",
        "latitude": 1.3471782,
        "longitude": 103.6807466,
        "level": 0
    },
    {
        "name": "LT4 (NS)",
        "address": "NS4-02-34, Level - L2",
        "latitude": 1.3456159, 
        "longitude": 103.6811031,
        "level": 20
    },
    {
        "name": "Designated Smoking Area 5 (NS)",
        "address": "Foyer @ LT2A (NS)"
    },
    {
        "name": "Subway (N2.1)",
        "address": "N2.1-01-07, Level - L1"
    },
    {
        "name": "LT5 (NS)",
        "address": "NS2-02-07, Level - L2",
        "latitude": 1.346299,
        "longitude": 103.6806677,
        "level": 20
    },
    {
        "name": "McDonald's (N2.1)",
        "address": "N2.1-01-08, Level - L1"
    },
    {
        "name": "Photo-Me (NS)",
        "address": "NS3-02, Level - L2"
    },
    {
        "name": "Banner @ Marketplace (NS)",
        "address": "Level - L1"
    },
    {
        "name": "LT16 (NS)",
        "address": "NS1-04-05, Level - L4",
        "latitude": 1.3453591,
        "longitude": 103.6806687,
        "level": 40
    },
    {
        "name": "LT18 (NS)",
        "address": "NS1-04-01, Level - L4",
        "latitude": 1.3451416,
        "longitude": 103.6806686,
        "level": 40
    },
    {
        "name": "U-shop (NS)",
        "address": "NS3-01-17/18, Level - L1",
        "latitude": 1.3471758530643496,
        "longitude": 103.68069906869981,
        "level": 0
    },
    {
        "name": "LT1 (NS)",
        "address": "NS3-02-09, Level - L2",
        "latitude": 1.3468911,
        "longitude": 103.6805364,
        "level": 20
    }
]
